,StreetAddress,City,State,ZipCode,Latitude,Longitude,Price,YearBuilt,LotSize,HomeType,Zestimate,Bedrooms,Bathrooms,LivingArea,HOA,BrokerageName,LastSoldPrice,HomeStatus,Parking
0,709 W Orange Ave,South San Francisco,CA,94080,37.64973,-122.43276,949000,1944,3998,SINGLE_FAMILY,1152400,2,1,800,0,Coldwell Banker Realty,680000,FOR_SALE,0
1,814 Miller Ave,South San Francisco,CA,94080,37.660213,-122.4269,1805000,1939,7000,SINGLE_FAMILY,1855500,4,3,2000,0,KW Peninsula Estates,1605000,FOR_SALE,0
2,353 Granada Dr,South San Francisco,CA,94080,37.64136,-122.43593,1195000,1955,5250,SINGLE_FAMILY,1327500,3,1,1160,0,Sotheby's International Realty,0,FOR_SALE,2
3,10 Moonlight Ct,South San Francisco,CA,94080,37.6417,-122.44822,1180000,1995,1865,SINGLE_FAMILY,1339200,3,3,1610,130,Compass,650000,FOR_SALE,3
4,389 Heather Way,South San Francisco,CA,94080,37.666046,-122.43337,1349000,1954,4961,SINGLE_FAMILY,1171000,3,2,1575,0,Golden Gate Sotheby's International Realty,0,FOR_SALE,0
5,303 Forest View Dr,South San Francisco,CA,94080,37.6629,-122.43463,1150000,1953,4500,SINGLE_FAMILY,1131400,3,1,1000,0,"Angie Barreto, Broker",0,FOR_SALE,0
6,405 29th Ave,San Mateo,CA,94403,37.537216,-122.31008,2180000,1941,4939,SINGLE_FAMILY,2391900,3,3,2000,0,Compass,458500,FOR_SALE,0
7,605 Sylvan Ave,San Mateo,CA,94403,37.533978,-122.312744,1498000,1949,5549,SINGLE_FAMILY,1875400,2,1,1430,0,KW Peninsula Estates,1500000,FOR_SALE,0
8,709 28th Ave,San Mateo,CA,94403,37.535915,-122.31631,2598000,1976,6050,SINGLE_FAMILY,2430300,4,3,2450,0,Own Real Estate,0,FOR_SALE,0
9,450 Turner Ter,San Mateo,CA,94401,37.572525,-122.33458,2898000,1910,9343,SINGLE_FAMILY,3150400,4,4,2791,0,Compass,2650000,FOR_SALE,0
10,1043 Yates Way,San Mateo,CA,94403,37.546528,-122.2937,1335000,2000,14213,TOWNHOUSE,1593800,2,3,1254,299,Sereno,1310000,FOR_SALE,0
11,4283 George Ave APT 2,San Mateo,CA,94403,37.532047,-122.286095,798000,1965,1045,CONDO,862900,2,2,1040,495,Doherty Realty,84000,FOR_SALE,0
12,3517 Winway Cir,San Mateo,CA,94403,37.533047,-122.302345,2200000,1949,5606,SINGLE_FAMILY,2338600,3,2,2090,0,Compass,951000,FOR_SALE,1
13,10 Cascade Ct,San Mateo,CA,94401,37.576473,-122.32231,1550000,1945,5100,SINGLE_FAMILY,1753500,4,2,1370,0,Real Estate Unlimited,405000,FOR_SALE,1
14,181 E Hillsdale Blvd,San Mateo,CA,94403,37.541107,-122.29191,1375000,1948,8293,SINGLE_FAMILY,1583000,2,2,1150,0,Compass,450000,FOR_SALE,1
15,1 Baldwin Ave APT 818,San Mateo,CA,94401,37.566105,-122.32796,343000,1988,958,CONDO,343000,1,1,930,7364,Bay Area Senior Services Inc,0,FOR_SALE,0
16,1 Baldwin Ave APT 916,San Mateo,CA,94401,37.566105,-122.32796,599000,1988,1132,CONDO,613175,2,2,1100,5686,Compass,615000,FOR_SALE,0
17,1 Baldwin Ave APT 306,San Mateo,CA,94401,37.566105,-122.32796,375000,1988,914,CONDO,382003,1,1,930,4873,Bay Area Senior Services Inc,320000,FOR_SALE,0
18,316 N Delaware St,San Mateo,CA,94401,37.5742,-122.327385,1695000,1928,6050,MULTI_FAMILY,1494700,3,3,1958,0,Tri-Star Realty,425100,FOR_SALE,3
19,1734 Quesada Way,Burlingame,CA,94010,37.589195,-122.38621,2198000,1955,8062,SINGLE_FAMILY,2600000,3,2,1700,0,KW Peninsula Estates,0,FOR_SALE,0
20,1426 Benito Ave,Burlingame,CA,94010,37.580097,-122.38006,2199000,1939,5100,SINGLE_FAMILY,2604000,2,2,1470,0,Green Banker Realty,315000,FOR_SALE,0
21,2418 Hillside Dr,Burlingame,CA,94010,37.580914,-122.37814,2795000,1924,5998,SINGLE_FAMILY,2555000,3,2,1700,0,Compass,0,FOR_SALE,0
22,110 Park Rd APT 103,Burlingame,CA,94010,37.57649,-122.34435,1588000,1975,2526,CONDO,1588600,2,2,1740,70,KW Peninsula Estates,1150000,FOR_SALE,0
23,1500 Willow Ave APT 202,Burlingame,CA,94010,37.579536,-122.35849,828000,1981,1176,CONDO,853090,2,2,1032,389,Compass,525000,FOR_SALE,2
24,1401 Joe Dimaggio Ct,San Jose,CA,95122,37.328213,-121.84326,698000,1971,4007,SINGLE_FAMILY,726800,2,1,872,0,Finamore Realty,435000,FOR_SALE,2
25,4970 Cherry Ave UNIT 111,San Jose,CA,95118,37.258377,-121.87965,599980,1979,1879,CONDO,671200,2,2,975,370,EQ1,399500,FOR_SALE,0
26,1070 Niguel Ln,San Jose,CA,95138,37.242004,-121.7645,749000,1998,871,CONDO,849566,2,2,1085,347,Maxreal,330000,FOR_SALE,0
27,1819 Perrone Cir,San Jose,CA,95116,37.35719,-121.85307,849999,1983,4260,SINGLE_FAMILY,834800,3,2,1129,0,Keller Williams Realty-Silicon Valley,0,FOR_SALE,0
28,5313 Olstad Ct,San Jose,CA,95111,37.2621,-121.79963,1298950,1973,7919,SINGLE_FAMILY,1575800,3,3,2106,0,Compass,620000,FOR_SALE,0
29,5059 Glouchester Ct,San Jose,CA,95136,37.26045,-121.85207,1499900,1973,6141,SINGLE_FAMILY,1696400,4,3,2124,0,Bay Realty,1030000,FOR_SALE,0
30,27 Deer Run Cir,San Jose,CA,95136,37.26703,-121.82391,795000,1988,1097,CONDO,903409,3,3,1360,355,Keller Williams Realty-Silicon Valley,800000,FOR_SALE,0
31,292 Stonegate Cir,San Jose,CA,95110,37.312206,-121.87958,399000,1984,670,CONDO,425373,1,1,560,295,Cameo Real Estate,420000,FOR_SALE,1
32,3114 Heather Ridge Dr,San Jose,CA,95136,37.281586,-121.86228,719000,1989,0,CONDO,724400,2,2,1099,586,Compass,289000,FOR_SALE,2
33,1427 McQuesten Dr APT B,San Jose,CA,95122,37.331017,-121.84579,600000,1980,684,CONDO,663100,3,2,1150,420,Intero Real Estate Services,520000,FOR_SALE,1
34,2538 Baton Rouge Dr,San Jose,CA,95133,37.375694,-121.85038,988000,2005,897,TOWNHOUSE,1152200,4,4,1648,215,Action Properties Inc,625000,FOR_SALE,0
35,7837 Prestwick Cir,San Jose,CA,95135,37.291378,-121.73866,879000,1989,435,CONDO,967197,2,2,1804,1078,Keller Williams San Jose Gateway,0,FOR_SALE,2
36,3649 Rowley Dr,San Jose,CA,95132,37.420227,-121.85812,1398888,1970,6851,SINGLE_FAMILY,1624100,5,3,1790,0,Realty One Group Infinity,1025000,FOR_SALE,0
37,5760 Condor Cir,San Jose,CA,95118,37.23465,-121.89702,1499000,1964,7257,SINGLE_FAMILY,1593700,4,2,1700,0,Golden Gate Sotheby's International Realty,0,FOR_SALE,0
38,1900 McBain Ave,San Jose,CA,95125,37.28915,-121.92079,2995000,2005,10254,SINGLE_FAMILY,3532000,5,4,3255,0,Coldwell Banker Realty,1845000,FOR_SALE,2
39,809 Auzerais Ave UNIT 224,San Jose,CA,95126,37.321396,-121.90568,799000,2008,620,CONDO,879800,2,2,1229,41,Intero Real Estate Services,376000,FOR_SALE,0
40,1777 Barcelona Ave,San Jose,CA,95124,37.25347,-121.91517,1939000,1959,6969,SINGLE_FAMILY,2240700,4,3,1996,0,Legacy Real Estate & Assoc.,800000,FOR_SALE,0
41,251 Frangipani Ct,San Jose,CA,95111,37.292637,-121.84275,1185000,2001,3894,SINGLE_FAMILY,1330100,4,3,2205,125,Compass,905000,FOR_SALE,0
42,2213 Quail Bluff Ct,San Jose,CA,95121,37.298534,-121.78875,2498000,1998,11517,SINGLE_FAMILY,2933869,5,3,2835,0,Block Change Real Estate,550000,FOR_SALE,0
43,654 Willis Ave,San Jose,CA,95125,37.321995,-121.894806,999000,1915,6080,SINGLE_FAMILY,1179600,4,2,1775,0,Gold House Realty & Mortgage,609000,FOR_SALE,0
44,6070 Jacques Dr,San Jose,CA,95123,37.237534,-121.842186,1399999,1970,6094,SINGLE_FAMILY,1537100,3,2,1864,0,Realty World Golden Hills,510000,FOR_SALE,0
45,3232 Hostetter Rd,San Jose,CA,95132,37.40713,-121.85469,1525000,1969,6115,SINGLE_FAMILY,1639000,3,2,1453,0,Coldwell Banker-The Real Estate People,663000,FOR_SALE,0
46,1679 Fairwood Ave,San Jose,CA,95125,37.281208,-121.90717,1889000,1960,6886,SINGLE_FAMILY,2055200,4,2,1509,0,KW Silicon City,1310000,FOR_SALE,0
47,1089 Queensbridge Ct,San Jose,CA,95120,37.20002,-121.84145,2500000,1981,9509,SINGLE_FAMILY,2963313,5,3,2974,0,Coldwell Banker Realty,1350000,FOR_SALE,2
48,25 Avenida Espana,San Jose,CA,95139,37.231796,-121.76378,1099000,1972,7065,SINGLE_FAMILY,1277200,3,2,1120,0,KW Santa Clara Valley Inc,598000,FOR_SALE,2
49,709 Deboer Ln,San Jose,CA,95111,37.28384,-121.81871,989000,1969,6059,SINGLE_FAMILY,1021700,4,2,1572,0,Real Estate Experts,400000,FOR_SALE,0
50,1904 Jonathan Ave,San Jose,CA,95125,37.298176,-121.88618,1999999,1948,6150,SINGLE_FAMILY,2085000,3,3,1769,0,Compass,680000,FOR_SALE,2
51,4607 Capay Dr UNIT 3,San Jose,CA,95118,37.259357,-121.889534,500000,1970,3171,CONDO,539200,2,1,903,399,Advance 1 McKeever Real Estate,69000,FOR_SALE,1
52,1338 Chertsey Ct,San Jose,CA,95131,37.386566,-121.869095,998888,1971,6141,SINGLE_FAMILY,967400,2,1,846,0,Realty One Group Infinity,178000,FOR_SALE,0
53,479 Galen Dr,San Jose,CA,95123,37.230076,-121.82215,1849000,1976,6473,SINGLE_FAMILY,1641200,5,2,2407,0,Intero Real Estate Services,307500,FOR_SALE,1
54,267 E Hedding St,San Jose,CA,95112,37.35647,-121.89752,1149000,1940,5414,SINGLE_FAMILY,1203100,3,1,1262,0,Azealty,899000,FOR_SALE,0
55,1853 Midnight Cir,San Jose,CA,95133,37.36743,-121.86653,1298000,2016,1306,TOWNHOUSE,1327900,4,4,1985,244,Re/max Accord,904000,FOR_SALE,2
56,759 Sweeny St,San Francisco,CA,94134,37.730186,-122.418465,799000,1944,1999,SINGLE_FAMILY,926400,2,1,994,0,Compass,0,FOR_SALE,2
57,1400 Mission St APT 1011,San Francisco,CA,94103,37.775284,-122.41649,389778,2015,0,CONDO,390200,2,2,974,557,Home Quest Realty,300500,FOR_SALE,0
58,2626 26th Ave,San Francisco,CA,94116,37.7384,-122.48256,998000,1914,4499,SINGLE_FAMILY,1245000,2,1,1000,0,Coldwell Banker Realty,0,FOR_SALE,0
59,52 Innes Ct APT 204,San Francisco,CA,94124,37.72757,-122.367256,297737,2017,19793,CONDO,297700,2,2,1190,701,Century 21 Realty Alliance,243000,FOR_SALE,1
60,2694 19th Ave,San Francisco,CA,94116,37.737617,-122.47496,998000,1938,2474,SINGLE_FAMILY,1290400,3,2,1670,0,"West & Praszker, REALTORSÂ®",0,FOR_SALE,1
61,1754 20th Ave,San Francisco,CA,94122,37.75504,-122.47727,1188000,1940,2996,SINGLE_FAMILY,1045900,2,1,1150,0,Park North Real Estate,0,FOR_SALE,1
62,5150 Diamond Heights Blvd APT 303B,San Francisco,CA,94131,37.74644,-122.440414,758000,1972,7215,CONDO,743200,1,1,838,650,Intero Real Estate Services,500000,FOR_SALE,1
63,1421 22nd Ave,San Francisco,CA,94122,37.76106,-122.4805,2389000,1988,3001,SINGLE_FAMILY,2120000,4,3,2416,0,Keller Williams San Francisco,0,FOR_SALE,2
64,3000-3002 Baker St,San Francisco,CA,94123,37.79878,-122.445786,1999000,1940,1459,MULTI_FAMILY,2174400,4,2,2400,0,Proof Real Estate,1650000,FOR_SALE,3
65,70 Hartford St,San Francisco,CA,94114,37.761337,-122.43425,2295000,1901,3520,CONDO,2248700,3,2,1635,398,"Aalto, Inc",2070000,FOR_SALE,1
66,721 Ulloa St,San Francisco,CA,94127,37.740524,-122.4635,1750000,1928,3001,SINGLE_FAMILY,2098200,2,2,0,0,Compass,872000,FOR_SALE,3
67,96 Bitting Ave,San Francisco,CA,94124,37.727306,-122.39877,998000,1998,1500,SINGLE_FAMILY,1088600,3,2,1394,21,Compass,740000,FOR_SALE,1
68,1112 Cole St,San Francisco,CA,94117,37.763805,-122.44931,1595000,1908,1821,CONDO,1629600,3,1,1340,160,Coldwell Banker Realty,900000,FOR_SALE,1
69,1909-1911 Ellis St,San Francisco,CA,94115,37.78139,-122.43787,2498000,1900,3436,SINGLE_FAMILY,3209300,6,4,3436,0,Intero Real Estate Services,1950000,FOR_SALE,0
70,248 Cumberland St,San Francisco,CA,94114,37.759068,-122.429214,1325000,1900,2850,CONDO,1793200,2,2,1195,0,Compass,1740000,FOR_SALE,1
71,62 Jennings Ct,San Francisco,CA,94124,37.717014,-122.39718,798000,1995,2702,CONDO,849800,3,2,1212,80,Compass,193000,FOR_SALE,2
72,966 Blair Ct,Palo Alto,CA,94303,37.442863,-122.12753,2998000,1955,8751,SINGLE_FAMILY,3480700,3,2,1561,0,Compass,1275000,FOR_SALE,0
73,2140 High St,Palo Alto,CA,94301,37.431057,-122.143166,3000000,1938,5623,SINGLE_FAMILY,3304100,3,2,1232,0,Compass,1560000,FOR_SALE,0
74,440 Cesano Ct APT 210,Palo Alto,CA,94306,37.405403,-122.11726,1698888,1981,2178,CONDO,1891700,3,2,1850,695,Compass,1398000,FOR_SALE,1
75,765 San Antonio Rd APT 37,Palo Alto,CA,94303,37.418694,-122.10296,1299990,1976,1058,CONDO,1400500,2,2,1030,605,EastWest Realty,1160000,FOR_SALE,1
76,101 Alma St APT 102,Palo Alto,CA,94301,37.44713,-122.16833,999950,1960,1306,CONDO,999957,1,1,1032,816,Compass,0,FOR_SALE,0
77,943 Las Palmas Dr,Santa Clara,CA,95051,37.342304,-121.971756,1498000,1955,5702,SINGLE_FAMILY,1866360,3,2,1166,0,Compass,1090000,FOR_SALE,0
78,2985 Warburton Ave,Santa Clara,CA,95051,37.355152,-121.98146,1899000,1956,5789,SINGLE_FAMILY,2172700,4,4,1991,0,Keller Williams Realty - Cupertino,510000,FOR_SALE,2
79,2200 Agnew Rd APT 117,Santa Clara,CA,95054,37.392223,-121.96391,799000,1982,1648,CONDO,884389,2,2,1316,747,Intero Real Estate Services,312000,FOR_SALE,0
80,1549 Pratt Pl,Santa Clara,CA,95050,37.356308,-121.943504,1248000,2018,818,TOWNHOUSE,1592900,3,4,1840,265,Maxreal Property,1201608,FOR_SALE,0
81,961 Maryann Dr,Santa Clara,CA,95050,37.344707,-121.96749,1599000,1953,8367,SINGLE_FAMILY,1555500,4,2,1511,0,Coldwell Banker Realty,0,FOR_SALE,0
82,1880 Catherine St,Santa Clara,CA,95050,37.34975,-121.958755,1298000,1947,5858,SINGLE_FAMILY,1595700,2,2,1380,0,Maxreal Property,840000,FOR_SALE,0
83,936 Kiely Blvd UNIT I,Santa Clara,CA,95051,37.342937,-121.978676,575000,1971,924,CONDO,590800,2,1,882,515,Keller Williams Realty - Cupertino,370000,FOR_SALE,0
84,1883 Agnew Rd UNIT 218,Santa Clara,CA,95054,37.39546,-121.958046,638888,2006,435,CONDO,668171,1,1,870,409,TiJomann,344000,FOR_SALE,0
85,907 Civic Center Dr,Santa Clara,CA,95050,37.355953,-121.94669,1059888,1900,3802,SINGLE_FAMILY,1132100,4,2,992,0,Powerful Agents Real Estate Services,0,FOR_SALE,0
86,2120 Town & Country Ln,Santa Clara,CA,95050,37.33652,-121.95763,1665000,1962,7331,MULTI_FAMILY,1900700,5,4,2251,0,Atria Real Estate,865000,FOR_SALE,2
87,656 Scott Blvd,Santa Clara,CA,95050,37.3405,-121.95842,1499950,1947,6394,SINGLE_FAMILY,1818592,3,2,1390,0,Intero Real Estate Services,1200000,FOR_SALE,0
88,617 Kiely Blvd,Santa Clara,CA,95051,37.33351,-121.97358,1599000,1955,7387,SINGLE_FAMILY,1969500,3,2,1254,0,Montalvo Realty,0,FOR_SALE,0
89,4072 Lick Mill Blvd,Santa Clara,CA,95054,37.39744,-121.94435,1450000,2004,1263,TOWNHOUSE,1698700,3,3,1700,393,KW Silicon City,1488000,FOR_SALE,0
90,3901 Lick Mill Blvd APT 232,Santa Clara,CA,95054,37.396397,-121.94274,699888,2005,834,CONDO,735092,1,1,834,398,Redfin,335000,FOR_SALE,0
91,643 Scott Blvd,Santa Clara,CA,95050,37.3402,-121.95755,1799000,1947,7039,SINGLE_FAMILY,2097932,4,4,2160,0,KW Silicon City,938000,FOR_SALE,0
92,21743 Alcazar Ave,Cupertino,CA,95014,37.317863,-122.05489,1700000,1965,7562,SINGLE_FAMILY,2725300,3,2,1539,0,Intero Real Estate Services,0,FOR_SALE,1
93,7552 Heatherwood Dr,Cupertino,CA,95014,37.308956,-122.03796,2998000,1960,13873,SINGLE_FAMILY,3710427,4,3,2285,0,Coldwell Banker Realty,618000,FOR_SALE,0
94,10218 Mira Vista Rd,Cupertino,CA,95014,37.320087,-122.06463,2688000,1954,10332,SINGLE_FAMILY,2868000,4,3,2071,0,Compass,0,FOR_SALE,0
95,1480 Aster Ct,Cupertino,CA,95014,37.296394,-122.03957,2388000,1968,5998,SINGLE_FAMILY,3109600,4,3,1758,0,W Star Investment Inc,1660000,FOR_SALE,0
96,10532 Cedar Tree Ct,Cupertino,CA,95014,37.330704,-122.024025,2998000,1963,7753,SINGLE_FAMILY,3726900,4,3,1687,0,Intero Real Estate Services,592000,FOR_SALE,0
97,21062 Red Fir Ct,Cupertino,CA,95014,37.314377,-122.04267,999000,1971,1585,TOWNHOUSE,1067830,2,1,914,376,Maxreal,1265000,FOR_SALE,0
98,476 Walnut Dr,Milpitas,CA,95035,37.436134,-121.91612,1095900,1960,5929,SINGLE_FAMILY,1153600,3,1,980,0,Wisestream Inc.,902000,FOR_SALE,2
99,924 Smith Ln,Milpitas,CA,95035,37.43286,-121.888916,1490000,2012,1550,SINGLE_FAMILY,1751500,4,4,2147,155,Compass,0,FOR_SALE,0
100,420 Dempsey Rd UNIT 122,Milpitas,CA,95035,37.42827,-121.88359,649888,2007,1021,CONDO,707168,3,2,1021,525,RE/MAX Gold,190000,FOR_SALE,0
101,1421 S Milpitas Blvd,Milpitas,CA,95035,37.413914,-121.88748,749000,2018,344,CONDO,787300,1,2,910,0,Century 21 Realty Alliance,0,FOR_SALE,1
102,762 Hammond Way,Milpitas,CA,95035,37.420074,-121.90261,798888,2005,971,CONDO,893671,2,3,1192,318,Intero Real Estate Services,500000,FOR_SALE,0
103,760 Via Baja Dr,Milpitas,CA,95035,37.444355,-121.89486,2099000,1982,10092,SINGLE_FAMILY,2081500,4,3,2038,0,168 Realty,1230000,FOR_SALE,0
104,531 Greathouse Dr,Milpitas,CA,95035,37.45975,-121.90111,1249000,1961,5227,SINGLE_FAMILY,1524000,3,2,1085,0,"Exp Realty Of California, Inc",840000,FOR_SALE,2
105,40237 Davis Ct,Fremont,CA,94538,37.53544,-121.97337,1150000,1959,6703,SINGLE_FAMILY,1046500,3,2,1144,0,Realty ONE Group Zoom,540000,FOR_SALE,2
106,3832 Fiano Cmn,Fremont,CA,94555,37.578117,-122.044304,1388000,2016,2252,SINGLE_FAMILY,1558943,3,4,1868,144,Compass,1027000,FOR_SALE,0
107,37050 Meadowbrook Cmn APT 302,Fremont,CA,94536,37.562706,-122.007675,390000,1984,87,CONDO,401949,1,1,714,532,Coldwell Banker Realty,355000,FOR_SALE,1
108,341 De Leon Ave,Fremont,CA,94539,37.529224,-121.92322,1698000,1953,5022,SINGLE_FAMILY,1820100,4,2,1500,0,"Main Street Real Estate, Inc.",240000,FOR_SALE,1
109,39681 Catamaran Ct,Fremont,CA,94538,37.52932,-121.98998,999000,1961,5723,SINGLE_FAMILY,1242700,3,2,1067,0,The Property Network,365000,FOR_SALE,0
110,26 Sea Crest Ter,Fremont,CA,94536,37.570282,-121.96684,899980,1987,1951,TOWNHOUSE,1001510,2,3,1364,345,Compass,720000,FOR_SALE,0
111,34973 Silverlock Ct,Fremont,CA,94555,37.57356,-122.03041,1999000,1997,7405,SINGLE_FAMILY,1894100,5,3,2355,0,Intero Real Estate Services,362000,FOR_SALE,2
112,269 Fountain Grass Ter,Fremont,CA,94539,37.462242,-121.91499,949000,2008,8276,CONDO,964000,2,2,1303,235,Baycal Capital,441000,FOR_SALE,2
113,43674 Ellsworth St #2,Fremont,CA,94539,37.526405,-121.919014,1100000,1994,15245,CONDO,1223600,2,2,1068,287,Coldwell Banker Realty,605000,FOR_SALE,1
114,34140 Audrey Ct,Fremont,CA,94555,37.570602,-122.05016,1898000,1986,7405,SINGLE_FAMILY,1835000,4,3,1729,0,Everhome,565000,FOR_SALE,2
115,4334 Othello Dr,Fremont,CA,94555,37.57538,-122.05238,1999000,1979,6098,SINGLE_FAMILY,1556700,4,3,2002,0,Cascade California Realty,756000,FOR_SALE,2
116,4160 Polaris Ave,Union City,CA,94587,37.584618,-122.063835,880000,1974,1794,TOWNHOUSE,952690,4,3,1584,333,Compass,246000,FOR_SALE,0
117,117 Aurora Plz,Union City,CA,94587,37.592342,-122.00384,439000,1985,0,CONDO,444100,2,1,688,335,Coldwell Banker Realty,363000,FOR_SALE,0
118,31115 Alvarado Niles Rd,Union City,CA,94587,37.597137,-122.069855,614900,1983,0,CONDO,649400,2,2,1129,369,"Performance Realtors, Inc",505000,FOR_SALE,2
119,33955 Railroad Ave,Union City,CA,94587,37.59551,-122.0195,950000,1908,4791,SINGLE_FAMILY,1061200,2,2,837,0,"Exp Realty Of California, Inc",212000,FOR_SALE,3
120,215 Poplar Ave,Hayward,CA,94541,37.670918,-122.10057,599000,1980,7898,TOWNHOUSE,706300,2,2,1272,200,Jenny He Realty Associates,565000,FOR_SALE,2
121,76 Middleton Pl,Hayward,CA,94544,37.655636,-122.087,828000,2015,1472,SINGLE_FAMILY,891678,4,4,2043,218,Intero Real Estate Services,669500,FOR_SALE,2
122,592 Jilliene Way,Hayward,CA,94544,37.623028,-122.036316,828800,1955,5001,SINGLE_FAMILY,925700,3,2,1078,0,HomeSmart ICARE Realty,285000,FOR_SALE,2
123,28188 Ormond Ave,Hayward,CA,94544,37.624622,-122.07581,799000,1954,8415,SINGLE_FAMILY,898931,3,2,1132,0,Elite Realty Services,350000,FOR_SALE,0
124,1865 Marcus Ct,Hayward,CA,94541,37.667534,-122.06466,699000,1981,0,TOWNHOUSE,730700,3,3,1620,580,Compass,429000,FOR_SALE,2
125,26394 Underwood Ave,Hayward,CA,94544,37.641666,-122.083206,789000,1952,5131,SINGLE_FAMILY,844965,3,2,1046,0,KW Bay Area Estates,300000,FOR_SALE,0
126,715 Heath Ct APT 190,Hayward,CA,94544,37.63395,-122.045105,550000,1988,8633,CONDO,531800,2,2,906,470,"Clifford R Stevens, Broker",177500,FOR_SALE,4
127,23264 Ida Ln,Hayward,CA,94541,37.661476,-122.100624,799999,1959,5227,MULTI_FAMILY,912200,4,2,1458,0,Fohl Realty & Investments,82000,FOR_SALE,0
128,26587 Mission Blvd,Hayward,CA,94544,37.646088,-122.06285,849500,2019,7187,CONDO,931379,3,3,1823,399,Compass,0,FOR_SALE,0
129,28573 Coleridge Ave,Hayward,CA,94544,37.629665,-122.06541,850000,1957,5227,SINGLE_FAMILY,880700,3,2,1256,0,Prime Properties Of Calif,165000,FOR_SALE,2
130,23965 2nd St,Hayward,CA,94541,37.671223,-122.07503,725000,1947,5227,SINGLE_FAMILY,742000,2,1,1514,0,Compass,626000,FOR_SALE,1
131,27452 Ponderosa Ct,Hayward,CA,94545,37.627983,-122.0956,689888,1970,1054,TOWNHOUSE,744101,3,2,1254,268,eXp Realty of California Inc.,565000,FOR_SALE,0
132,1751 Santa Cruz Way,Hayward,CA,94541,37.69131,-122.10216,869000,1953,5227,SINGLE_FAMILY,970200,3,2,1088,0,Compass,607000,FOR_SALE,2
133,31964 Olean St,Hayward,CA,94544,37.6119,-122.03239,875000,1951,5000,SINGLE_FAMILY,926900,4,2,1317,0,Coldwell Banker Realty,430000,FOR_SALE,0
134,19164 Garrison Ave,Castro Valley,CA,94546,37.706547,-122.079445,875000,1950,5227,SINGLE_FAMILY,872400,3,2,1405,0,Compass,0,FOR_SALE,1
135,18921 Patton Dr,Castro Valley,CA,94546,37.709145,-122.07739,749950,1949,4356,SINGLE_FAMILY,717600,2,1,860,0,Tri Valley Brokers,0,FOR_SALE,2
136,19652 Stanton Ave,Castro Valley,CA,94546,37.70114,-122.0924,949000,1920,6098,SINGLE_FAMILY,1281000,3,2,1873,0,Compass,527000,FOR_SALE,1
137,3181 Keith Ave,Castro Valley,CA,94546,37.706863,-122.09258,1355000,1949,15681,SINGLE_FAMILY,1417000,4,2,2300,0,Coldwell Banker Realty,0,FOR_SALE,2
138,1508 Grove Way,Hayward,CA,94546,37.685432,-122.08854,865000,1950,7840,SINGLE_FAMILY,905500,3,2,1480,0,Pam Winterbauer Real Estate,0,FOR_SALE,2
139,25515 Crestfield Cir,Castro Valley,CA,94552,37.68617,-122.03944,1780000,2000,10454,SINGLE_FAMILY,2022500,5,3,2992,64,Keller Williams Realty,1125000,FOR_SALE,3
140,1629 Tacoma Ave,Berkeley,CA,94707,37.891624,-122.28402,1095000,1915,3920,SINGLE_FAMILY,1603600,3,2,1250,0,Compass,645000,FOR_SALE,1
141,157 Fairlawn Dr,Berkeley,CA,94708,37.885628,-122.25052,1425000,1955,6098,SINGLE_FAMILY,1945000,3,2,1943,0,Red Oak Realty,1296000,FOR_SALE,2
142,832 Neilson St,Berkeley,CA,94707,37.89219,-122.28682,899000,1918,3484,SINGLE_FAMILY,1288700,2,1,904,0,Compass,648000,FOR_SALE,1
143,2218 Carleton St,Berkeley,CA,94704,37.861427,-122.26367,2449000,1917,6534,MULTI_FAMILY,1718100,6,4,2964,0,Compass,1500000,FOR_SALE,0
144,821 San Luis Rd,Berkeley,CA,94707,37.8944,-122.27051,1095000,1949,6098,SINGLE_FAMILY,1084000,2,1,1088,0,Coldwell Banker Realty,980000,FOR_SALE,1
145,3036 Fulton St #A,Berkeley,CA,94705,37.854397,-122.263596,798000,1915,5227,CONDO,855400,2,2,976,250,Bay Area Properties,0,FOR_SALE,0
146,2333 Rose St,Berkeley,CA,94708,37.88336,-122.263916,1995000,1927,3920,SINGLE_FAMILY,2774300,4,5,2966,0,Compass,2343000,FOR_SALE,2
147,1260 Burnett St,Berkeley,CA,94702,37.853363,-122.28407,1899000,1912,4356,SINGLE_FAMILY,2037700,6,3,2888,0,Compass,0,FOR_SALE,2
148,3055 Shattuck Ave,Berkeley,CA,94705,37.853275,-122.26592,1350000,1908,5662,MULTI_FAMILY,1403000,4,2,1986,0,"Apex Financial & Realty, Inc.",156000,FOR_SALE,0
149,3110 Martin Luther King Jr Way,Berkeley,CA,94703,37.851944,-122.271164,1156000,1906,3920,MULTI_FAMILY,1390200,5,3,2553,0,Compass,900000,FOR_SALE,0
150,1931 Magellan Dr,Oakland,CA,94611,37.828793,-122.207886,979000,1938,6534,SINGLE_FAMILY,1586600,3,2,1762,0,Red Oak Realty,535000,FOR_SALE,2
151,6470 Buena Ventura Ave,Oakland,CA,94605,37.776203,-122.17514,995000,1949,6969,SINGLE_FAMILY,986000,4,3,2518,0,Compass,650000,FOR_SALE,4
152,4157 Manila Ave,Oakland,CA,94609,37.830315,-122.25752,1095000,1919,4356,SINGLE_FAMILY,1437000,3,2,1419,0,Compass,227500,FOR_SALE,1
153,1942 17th Ave,Oakland,CA,94606,37.79159,-122.23906,749000,1926,5227,SINGLE_FAMILY,821900,3,2,1384,0,Exp Realty Of California,375000,FOR_SALE,2
154,5823 Kingsley Cir,Oakland,CA,94605,37.77248,-122.19054,399000,1924,1742,SINGLE_FAMILY,433800,2,1,714,0,Keller Williams Realty,125000,FOR_SALE,0
155,2138 Havenscourt Blvd,Oakland,CA,94621,37.764282,-122.18923,649000,1923,3998,SINGLE_FAMILY,712600,3,2,1608,0,Coldwell Banker Realty,234000,FOR_SALE,0
156,4315 Whittle Ave,Oakland,CA,94602,37.810295,-122.20542,899000,1950,10890,SINGLE_FAMILY,1140300,2,1,1130,0,Compass,117500,FOR_SALE,1
157,1100 76th Ave,Oakland,CA,94621,37.755234,-122.18887,599000,1939,4162,MULTI_FAMILY,656600,4,2,1386,0,Kinetic Real Estate,437000,FOR_SALE,3
158,1920 Union St #9,Oakland,CA,94607,37.814007,-122.286575,449000,1930,0,CONDO,455700,1,1,1006,368,Keller Williams Realty,0,FOR_SALE,0
159,5627 Fleming Ave,Oakland,CA,94605,37.773815,-122.191444,799000,1923,0,SINGLE_FAMILY,929400,3,2,1562,0,Compass,350000,FOR_SALE,1
160,5750 Kingsley Cir,Oakland,CA,94605,37.772987,-122.19084,449000,1924,2178,SINGLE_FAMILY,540400,2,1,817,0,Compass,425000,FOR_SALE,1
161,3641 Dimond Ave,Oakland,CA,94602,37.802956,-122.21691,1095000,1901,10890,SINGLE_FAMILY,1612800,4,3,2654,0,Keller Williams Realty,930000,FOR_SALE,0
162,1754 12th St,Oakland,CA,94607,37.812286,-122.299324,800000,2010,8276,CONDO,849600,3,4,1652,275,Compass,457000,FOR_SALE,2
163,6704 Eastlawn St,Oakland,CA,94621,37.759483,-122.195435,575000,1944,3920,SINGLE_FAMILY,586400,3,2,1287,0,Better Homes Realty/mcarthr,0,FOR_SALE,1
164,38 Perth Pl,Berkeley,CA,94705,37.859486,-122.23331,2550000,2000,6969,SINGLE_FAMILY,2650900,5,4,3532,0,Compass,1200000,FOR_SALE,2
165,7620 Holly St,Oakland,CA,94621,37.760624,-122.18061,529000,1928,3484,SINGLE_FAMILY,562800,2,1,1212,0,Winkler Real Estate Group,100100,FOR_SALE,2
166,6194 Mazuela Dr,Oakland,CA,94611,37.83371,-122.21036,1795000,2002,10018,SINGLE_FAMILY,2421000,4,4,3425,0,Compass,1295000,FOR_SALE,2
167,3309 Nicol Ave,Oakland,CA,94602,37.790756,-122.210884,735000,1944,4356,MULTI_FAMILY,827800,3,2,1327,0,Coldwell Banker Realty,585000,FOR_SALE,0
168,1906 105th Ave,Oakland,CA,94603,37.740704,-122.16153,699000,1930,3702,SINGLE_FAMILY,731800,3,1,1579,0,Compass,235000,FOR_SALE,4
169,1744 Seminary Ave,Oakland,CA,94621,37.767014,-122.196465,550000,1923,3049,SINGLE_FAMILY,514500,2,1,918,0,Prime Realty & Investments,390000,FOR_SALE,2
170,30 Covent Ln,Oakland,CA,94608,37.82241,-122.28798,749000,2005,871,TOWNHOUSE,804500,2,2,1350,255,Compass,610000,FOR_SALE,2
171,6801 Armour Dr,Oakland,CA,94611,37.836857,-122.2042,1348000,1963,18295,SINGLE_FAMILY,1587400,3,3,1929,0,The Grubb Company,1140000,FOR_SALE,2
172,2356 106th Ave,Oakland,CA,94603,37.742043,-122.154175,650000,1946,3920,SINGLE_FAMILY,709000,3,2,1014,0,Compass,610000,FOR_SALE,1
173,930 Joaquin Ave,San Leandro,CA,94577,37.728424,-122.140564,679975,1957,5227,SINGLE_FAMILY,916700,3,2,1516,0,Real Estate Ebroker Inc,0,FOR_SALE,2
174,911 Dolores Ave,San Leandro,CA,94577,37.72608,-122.14008,799000,1946,5662,SINGLE_FAMILY,1002000,3,1,1343,0,Intero Real Estate Services,640000,FOR_SALE,1
175,1020 Bancroft Ave,San Leandro,CA,94577,37.72979,-122.14864,1250000,1934,8712,SINGLE_FAMILY,1502800,4,4,2598,0,Compass,600000,FOR_SALE,2
176,580 Lewis Ave,San Leandro,CA,94577,37.734955,-122.14421,869000,1925,4673,SINGLE_FAMILY,949700,3,2,1303,0,GD Commercial Real Estate Inc,475000,FOR_SALE,0
177,1286 148th Ave,San Leandro,CA,94578,37.70719,-122.13503,974970,1942,6695,SINGLE_FAMILY,1103100,4,3,1866,0,HP Real Estate,546000,FOR_SALE,2
178,7421 Stonedale Dr,Pleasanton,CA,94588,37.68958,-121.92043,899999,1988,1459,TOWNHOUSE,982498,2,3,1502,350,KW Santa Clara Valley Inc,800000,FOR_SALE,0
179,3618 Woodbine Way,Pleasanton,CA,94588,37.699783,-121.86605,739900,1979,1306,TOWNHOUSE,751600,3,2,1291,225,"Realty Source, Incorporated",146000,FOR_SALE,1
180,1568 Oxsen St,Pleasanton,CA,94566,37.677425,-121.87024,1150000,1986,3920,SINGLE_FAMILY,1421300,2,2,1345,92,Catrina R.e. & Investments,494000,FOR_SALE,2
181,560 E Angela St,Pleasanton,CA,94566,37.65616,-121.870476,1399000,1956,6969,SINGLE_FAMILY,1190800,3,2,1265,0,Keller Williams Tri-valley,0,FOR_SALE,2
182,3411 Isle Royal Ct,Pleasanton,CA,94588,37.675575,-121.903465,1499000,1971,6534,SINGLE_FAMILY,1714800,4,2,1549,0,Legacy Real Estate & Assoc.,415000,FOR_SALE,2
183,4137 Cristobal Way,Pleasanton,CA,94566,37.674706,-121.871605,1169000,1965,6534,SINGLE_FAMILY,1139500,4,2,1368,0,Compass,0,FOR_SALE,2
184,5562 Metropolitan Way,Dublin,CA,94568,37.711742,-121.895836,1589000,2018,2221,SINGLE_FAMILY,1769487,4,4,2584,160,RE/MAX Gold,0,FOR_SALE,0
185,4351 Cherico Ln,Dublin,CA,94568,37.70931,-121.857864,1700000,2013,3484,SINGLE_FAMILY,1912600,4,4,2407,247,Town Real Estate,678000,FOR_SALE,2
186,3727 Branding Iron Pl,Dublin,CA,94568,37.732906,-121.86776,799000,2007,0,TOWNHOUSE,904600,2,3,1277,279,Elation Real Estate,543000,FOR_SALE,2
187,5768 Huntley Ave,Dublin,CA,94568,37.707275,-121.90056,1499000,2020,2178,SINGLE_FAMILY,1810300,4,4,2424,160,Lemara Commercial,1068000,FOR_SALE,2
188,3894 Highpointe Ct,Dublin,CA,94568,37.72943,-121.87006,2299888,2015,6534,SINGLE_FAMILY,2151700,4,5,3135,160,Realty One Group Future,1221000,FOR_SALE,2
189,4297 Kelton St,Dublin,CA,94568,37.709534,-121.85391,1575000,2016,3049,SINGLE_FAMILY,1716500,4,4,2327,118,Vxl Real Estate & Mortgage,956000,FOR_SALE,2
190,6983 Calistoga Ln,Dublin,CA,94568,37.733974,-121.87273,968000,2018,4765,TOWNHOUSE,1013500,2,3,1514,232,HANDFORE REALTY CORP.,0,FOR_SALE,2
191,540 La Copita Ct,San Ramon,CA,94583,37.772133,-121.97983,680000,1971,871,TOWNHOUSE,694400,2,2,1064,355,Keller Williams Realty,520000,FOR_SALE,1
192,511 Marlboro Ct,San Ramon,CA,94583,37.749416,-121.95291,1499000,1978,7405,SINGLE_FAMILY,1234600,4,2,1520,0,Compass,0,FOR_SALE,2
193,216 Lasso Cir,San Ramon,CA,94583,37.7597,-121.98169,2250000,1981,17424,SINGLE_FAMILY,2218600,4,3,2776,40,Geary Real Estate,378000,FOR_SALE,3
194,1745 Blakesley Dr,San Ramon,CA,94582,37.76483,-121.90268,1898888,2002,3920,SINGLE_FAMILY,2079700,4,3,2363,0,Compass,1570000,FOR_SALE,2
195,758 Galemeadow Cir,San Ramon,CA,94582,37.784985,-121.92796,1149900,1995,2178,TOWNHOUSE,1184500,3,3,1587,260,Sereno,352000,FOR_SALE,2
196,4057 W Lakeshore Dr,San Ramon,CA,94582,37.785343,-121.94671,1399000,1990,4791,TOWNHOUSE,1486100,3,3,1900,705,Bhhs Drysdale Properties,865000,FOR_SALE,2
197,6919 Wisteria St,San Ramon,CA,94583,37.73131,-121.924416,899000,1963,5702,SINGLE_FAMILY,946700,2,2,1165,27,Lyon RE Elk Grove,287000,FOR_SALE,1
198,5035 Rowan Dr,San Ramon,CA,94582,37.7597,-121.91344,1649888,2015,3484,SINGLE_FAMILY,1583800,3,3,2183,160,Keller Williams Tri-valley,911500,FOR_SALE,2
199,2235 Magnolia Bridge Dr,San Ramon,CA,94582,37.772762,-121.91745,1688000,2004,5227,SINGLE_FAMILY,1706400,3,3,2144,154,Rp Estates,630000,FOR_SALE,3
200,501 Garrigan Ct,Danville,CA,94506,37.80018,-121.89915,2298800,1996,12632,SINGLE_FAMILY,2373800,4,3,2963,0,Compass,1100000,FOR_SALE,3
201,215 Powhattan Ct,Danville,CA,94526,37.784546,-121.96823,1399950,1984,2613,TOWNHOUSE,1422700,3,3,1971,395,Compass,440000,FOR_SALE,2
202,56 Alexander Ln,Danville,CA,94526,37.809353,-121.99839,2590000,1971,16117,SINGLE_FAMILY,2614400,4,3,2393,0,The Agency,0,FOR_SALE,4
203,258 Via Encanto,San Ramon,CA,94583,37.78227,-121.98811,1988000,2018,3049,SINGLE_FAMILY,1950700,4,3,2683,180,Re/max Accord,1243000,FOR_SALE,2
